{
  "type": "FeatureCollection",
  "generator": "overpass-turbo",
  "copyright": "The data included in this document is from www.openstreetmap.org. The data is made available under ODbL.",
  "timestamp": "2024-12-10T19:54:49Z",
  "features": [
    {
      "type": "Feature",
      "properties": {
        "@id": "node/977487758",
        "bus": "yes",
        "highway": "bus_stop",
        "name": "东二环米秦北路口",
        "name:zh": "东二环米秦北路口",
        "network": "2路，28路，47路，48路，49路，216路，227路，230路，256路，262路，315路，410路，二环1号线，会展4号线，游8/610路",
        "public_transport": "platform"
      },
      "geometry": {
        "type": "Point",
        "coordinates": [
          108.9904424,
          34.2986938
        ]
      },
      "id": "node/977487758"
    },
    {
      "type": "Feature",
      "properties": {
        "@id": "node/1655770068",
        "bus": "yes",
        "highway": "bus_stop",
        "name": "沣东自贸园地铁站",
        "network": "52路，59路，820路，860路，865路，1015路，1121路",
        "public_transport": "platform"
      },
      "geometry": {
        "type": "Point",
        "coordinates": [
          108.7913327,
          34.3084429
        ]
      },
      "id": "node/1655770068"
    },
    {
      "type": "Feature",
      "properties": {
        "@id": "node/1917620284",
        "bus": "yes",
        "highway": "bus_stop",
        "name": "三桥东",
        "network": "301路",
        "public_transport": "platform"
      },
      "geometry": {
        "type": "Point",
        "coordinates": [
          108.8366627,
          34.2892946
        ]
      },
      "id": "node/1917620284"
    },
    {
      "type": "Feature",
      "properties": {
        "@id": "node/1917620493",
        "bus": "yes",
        "highway": "bus_stop",
        "name": "三桥立交",
        "network": "234路，331路",
        "public_transport": "platform"
      },
      "geometry": {
        "type": "Point",
        "coordinates": [
          108.8391313,
          34.2907684
        ]
      },
      "id": "node/1917620493"
    },
    {
      "type": "Feature",
      "properties": {
        "@id": "node/2402915291",
        "bus": "yes",
        "highway": "bus_stop",
        "name": "欧亚大道浐河西路口",
        "network": "190路，248路，530路，932路，浐灞2号线，浐灞9号线，会展3号线，全运3号线",
        "public_transport": "platform"
      },
      "geometry": {
        "type": "Point",
        "coordinates": [
          109.01163,
          34.3317892
        ]
      },
      "id": "node/2402915291"
    },
    {
      "type": "Feature",
      "properties": {
        "@id": "node/2407612264",
        "bus": "yes",
        "highway": "bus_stop",
        "name": "张家堡",
        "network": "50路，197路，207路，317路，336路，609路，618路，702路，711路，719路，723路",
        "public_transport": "platform"
      },
      "geometry": {
        "type": "Point",
        "coordinates": [
          108.9424879,
          34.3378428
        ]
      },
      "id": "node/2407612264"
    },
    {
      "type": "Feature",
      "properties": {
        "@id": "node/2450243484",
        "bus": "yes",
        "highway": "bus_stop",
        "name": "凤城六路西口",
        "network": "165路，209路，235路，717路，900路",
        "public_transport": "platform"
      },
      "geometry": {
        "type": "Point",
        "coordinates": [
          108.91565,
          34.3366614
        ]
      },
      "id": "node/2450243484"
    },
    {
      "type": "Feature",
      "properties": {
        "@id": "node/2502055257",
        "bus": "yes",
        "highway": "bus_stop",
        "name": "三桥西",
        "network": "222路，366路，503路，701路，725路，820路，825路，830路，865路，901路，901路区间，1013路，1120路，1121路，1123路，1124路",
        "public_transport": "platform"
      },
      "geometry": {
        "type": "Point",
        "coordinates": [
          108.819862,
          34.2963899
        ]
      },
      "id": "node/2502055257"
    },
    {
      "type": "Feature",
      "properties": {
        "@id": "node/2587693483",
        "bus": "yes",
        "highway": "bus_stop",
        "name": "三桥东",
        "network": "223路，367路，713路，829路",
        "public_transport": "platform"
      },
      "geometry": {
        "type": "Point",
        "coordinates": [
          108.835506,
          34.2907493
        ]
      },
      "id": "node/2587693483"
    },
    {
      "type": "Feature",
      "properties": {
        "@id": "node/2743983871",
        "bus": "yes",
        "highway": "bus_stop",
        "name": "辛家庙立交",
        "name:en": "Xinjiamiao Interchange",
        "name:zh": "辛家庙立交",
        "network": "165路，315路，浐灞2号线，全运3号线，游8/610路",
        "public_transport": "platform"
      },
      "geometry": {
        "type": "Point",
        "coordinates": [
          108.9902446,
          34.3122612
        ]
      },
      "id": "node/2743983871"
    },
    {
      "type": "Feature",
      "properties": {
        "@id": "node/2837280401",
        "bus": "yes",
        "highway": "bus_stop",
        "name": "辛家庙西村",
        "name:zh": "辛家庙西村",
        "network": "36路，104路，164路，256路，293路，528路，二环1号线，全运8号线",
        "public_transport": "platform"
      },
      "geometry": {
        "type": "Point",
        "coordinates": [
          108.9838437,
          34.3113468
        ]
      },
      "id": "node/2837280401"
    },
    {
      "type": "Feature",
      "properties": {
        "@id": "node/2918118740",
        "bus": "yes",
        "highway": "bus_stop",
        "name": "建元一路元朔大道口",
        "network": "会展3号线",
        "public_transport": "platform"
      },
      "geometry": {
        "type": "Point",
        "coordinates": [
          108.9476594,
          34.3754056
        ]
      },
      "id": "node/2918118740"
    },
    {
      "type": "Feature",
      "properties": {
        "@id": "node/3367465976",
        "bus": "yes",
        "highway": "bus_stop",
        "name": "民经一路凤城九路口",
        "network": "149路",
        "public_transport": "platform"
      },
      "geometry": {
        "type": "Point",
        "coordinates": [
          108.9180924,
          34.3496538
        ]
      },
      "id": "node/3367465976"
    },
    {
      "type": "Feature",
      "properties": {
        "@id": "node/4375127791",
        "bus": "yes",
        "highway": "bus_stop",
        "name": "市图书馆",
        "network": "155路，160路，197路，336路，901路",
        "public_transport": "platform"
      },
      "geometry": {
        "type": "Point",
        "coordinates": [
          108.9443203,
          34.3193831
        ]
      },
      "id": "node/4375127791"
    },
    {
      "type": "Feature",
      "properties": {
        "@id": "node/4375144392",
        "bus": "yes",
        "highway": "bus_stop",
        "name": "张家堡",
        "network": "50路，197路，207路，238路，284路，317路，336路，609路，618路，702路，711路，719路，723路",
        "public_transport": "platform"
      },
      "geometry": {
        "type": "Point",
        "coordinates": [
          108.9426698,
          34.3401536
        ]
      },
      "id": "node/4375144392"
    },
    {
      "type": "Feature",
      "properties": {
        "@id": "node/4375156590",
        "bus": "yes",
        "highway": "bus_stop",
        "name": "行政中心",
        "network": "50路，197路，207路，238路，282路，336路，609路，723路",
        "public_transport": "platform"
      },
      "geometry": {
        "type": "Point",
        "coordinates": [
          108.9433186,
          34.3448969
        ]
      },
      "id": "node/4375156590"
    },
    {
      "type": "Feature",
      "properties": {
        "@id": "node/5128989037",
        "bus": "yes",
        "highway": "bus_stop",
        "name": "广运潭大道欧亚大道口",
        "network": "248路，530路，会展3号线，全运3号线",
        "public_transport": "platform"
      },
      "geometry": {
        "type": "Point",
        "coordinates": [
          109.0024948,
          34.3317161
        ]
      },
      "id": "node/5128989037"
    },
    {
      "type": "Feature",
      "properties": {
        "@id": "node/5218241219",
        "name": "北苑-C口",
        "railway": "subway_entrance",
        "ref": "C",
        "wheelchair": "no"
      },
      "geometry": {
        "type": "Point",
        "coordinates": [
          108.9411386,
          34.3630549
        ]
      },
      "id": "node/5218241219"
    },
    {
      "type": "Feature",
      "properties": {
        "@id": "node/5218241220",
        "name": "北苑-D口",
        "railway": "subway_entrance",
        "ref": "D",
        "wheelchair": "no"
      },
      "geometry": {
        "type": "Point",
        "coordinates": [
          108.9406083,
          34.3642016
        ]
      },
      "id": "node/5218241220"
    },
    {
      "type": "Feature",
      "properties": {
        "@id": "node/5863609004",
        "bus": "yes",
        "highway": "bus_stop",
        "name": "秦汉大道西铜立交西",
        "name:zh": "秦汉大道西铜立交西",
        "public_transport": "platform"
      },
      "geometry": {
        "type": "Point",
        "coordinates": [
          108.9568297,
          34.3884705
        ]
      },
      "id": "node/5863609004"
    },
    {
      "type": "Feature",
      "properties": {
        "@id": "node/6561714809",
        "bus": "yes",
        "highway": "bus_stop",
        "name": "渭滨路凤城八路口",
        "network": "17路，200路，256路，267路，284路，浐灞9号线，全运9号线",
        "public_transport": "platform"
      },
      "geometry": {
        "type": "Point",
        "coordinates": [
          108.9621531,
          34.3421388
        ]
      },
      "id": "node/6561714809"
    },
    {
      "type": "Feature",
      "properties": {
        "@id": "node/6670618320",
        "name": "北苑-B口",
        "railway": "subway_entrance",
        "ref": "B",
        "wheelchair": "yes"
      },
      "geometry": {
        "type": "Point",
        "coordinates": [
          108.9401912,
          34.3630374
        ]
      },
      "id": "node/6670618320"
    },
    {
      "type": "Feature",
      "properties": {
        "@id": "node/7137205582",
        "bus": "yes",
        "highway": "bus_stop",
        "public_transport": "platform"
      },
      "geometry": {
        "type": "Point",
        "coordinates": [
          108.8066582,
          34.3556864
        ]
      },
      "id": "node/7137205582"
    },
    {
      "type": "Feature",
      "properties": {
        "@id": "node/7813267173",
        "bus": "yes",
        "highway": "bus_stop",
        "name": "凤城二路西口",
        "network": "160路，207路，235路，900路",
        "public_transport": "platform"
      },
      "geometry": {
        "type": "Point",
        "coordinates": [
          108.9179295,
          34.3187076
        ]
      },
      "id": "node/7813267173"
    },
    {
      "type": "Feature",
      "properties": {
        "@id": "node/7813286253",
        "bus": "yes",
        "highway": "bus_stop",
        "public_transport": "platform"
      },
      "geometry": {
        "type": "Point",
        "coordinates": [
          108.9180503,
          34.3007754
        ]
      },
      "id": "node/7813286253"
    },
    {
      "type": "Feature",
      "properties": {
        "@id": "node/7813328633",
        "public_transport": "platform"
      },
      "geometry": {
        "type": "Point",
        "coordinates": [
          108.9173837,
          34.295029
        ]
      },
      "id": "node/7813328633"
    },
    {
      "type": "Feature",
      "properties": {
        "@id": "node/7867410705",
        "bus": "yes",
        "highway": "bus_stop",
        "public_transport": "platform"
      },
      "geometry": {
        "type": "Point",
        "coordinates": [
          108.9520254,
          34.3761552
        ]
      },
      "id": "node/7867410705"
    },
    {
      "type": "Feature",
      "properties": {
        "@id": "node/8177668523",
        "bus": "yes",
        "highway": "bus_stop",
        "public_transport": "platform"
      },
      "geometry": {
        "type": "Point",
        "coordinates": [
          108.9185457,
          34.3934144
        ]
      },
      "id": "node/8177668523"
    },
    {
      "type": "Feature",
      "properties": {
        "@id": "node/8898927800",
        "name": "石桥立交-D口",
        "railway": "subway_entrance",
        "ref": "D",
        "wheelchair": "no"
      },
      "geometry": {
        "type": "Point",
        "coordinates": [
          108.8301497,
          34.2543844
        ]
      },
      "id": "node/8898927800"
    },
    {
      "type": "Feature",
      "properties": {
        "@id": "node/8898927801",
        "name": "石桥立交-C口",
        "railway": "subway_entrance",
        "ref": "C",
        "wheelchair": "no"
      },
      "geometry": {
        "type": "Point",
        "coordinates": [
          108.8301628,
          34.253639
        ]
      },
      "id": "node/8898927801"
    },
    {
      "type": "Feature",
      "properties": {
        "@id": "node/8898927803",
        "bus": "yes",
        "highway": "bus_stop",
        "public_transport": "platform"
      },
      "geometry": {
        "type": "Point",
        "coordinates": [
          108.8283302,
          34.2540803
        ]
      },
      "id": "node/8898927803"
    },
    {
      "type": "Feature",
      "properties": {
        "@id": "node/8898927805",
        "name": "石桥立交-B口",
        "railway": "subway_entrance",
        "ref": "B",
        "wheelchair": "yes"
      },
      "geometry": {
        "type": "Point",
        "coordinates": [
          108.8285145,
          34.2536317
        ]
      },
      "id": "node/8898927805"
    },
    {
      "type": "Feature",
      "properties": {
        "@id": "node/8898927807",
        "name": "石桥立交-A口",
        "railway": "subway_entrance",
        "ref": "A",
        "wheelchair": "no"
      },
      "geometry": {
        "type": "Point",
        "coordinates": [
          108.8287068,
          34.2543841
        ]
      },
      "id": "node/8898927807"
    },
    {
      "type": "Feature",
      "properties": {
        "@id": "node/8898927809",
        "name": "阿房宫南-D口",
        "railway": "subway_entrance",
        "ref": "D",
        "wheelchair": "no"
      },
      "geometry": {
        "type": "Point",
        "coordinates": [
          108.8215242,
          34.254375
        ]
      },
      "id": "node/8898927809"
    },
    {
      "type": "Feature",
      "properties": {
        "@id": "node/8898927812",
        "name": "阿房宫南-A口",
        "railway": "subway_entrance",
        "ref": "A",
        "wheelchair": "yes"
      },
      "geometry": {
        "type": "Point",
        "coordinates": [
          108.819857,
          34.2543729
        ]
      },
      "id": "node/8898927812"
    },
    {
      "type": "Feature",
      "properties": {
        "@id": "node/8898927813",
        "name": "阿房宫南-B口",
        "railway": "subway_entrance",
        "ref": "B",
        "wheelchair": "no"
      },
      "geometry": {
        "type": "Point",
        "coordinates": [
          108.8197402,
          34.2536078
        ]
      },
      "id": "node/8898927813"
    },
    {
      "type": "Feature",
      "properties": {
        "@id": "node/8968453022",
        "bus": "yes",
        "highway": "bus_stop",
        "public_transport": "platform"
      },
      "geometry": {
        "type": "Point",
        "coordinates": [
          108.7916853,
          34.2968623
        ]
      },
      "id": "node/8968453022"
    },
    {
      "type": "Feature",
      "properties": {
        "@id": "node/8968453026",
        "bus": "yes",
        "highway": "bus_stop",
        "public_transport": "platform"
      },
      "geometry": {
        "type": "Point",
        "coordinates": [
          108.7895376,
          34.2967382
        ]
      },
      "id": "node/8968453026"
    },
    {
      "type": "Feature",
      "properties": {
        "@id": "node/8968453027",
        "bus": "yes",
        "highway": "bus_stop",
        "public_transport": "platform"
      },
      "geometry": {
        "type": "Point",
        "coordinates": [
          108.7928344,
          34.295801
        ]
      },
      "id": "node/8968453027"
    },
    {
      "type": "Feature",
      "properties": {
        "@id": "node/8968485268",
        "bus": "yes",
        "highway": "bus_stop",
        "name": "太平路中段",
        "network": "826路，1210路",
        "public_transport": "platform"
      },
      "geometry": {
        "type": "Point",
        "coordinates": [
          108.7929978,
          34.2904887
        ]
      },
      "id": "node/8968485268"
    },
    {
      "type": "Feature",
      "properties": {
        "@id": "node/8968485269",
        "bus": "yes",
        "highway": "bus_stop",
        "name": "太平路中段",
        "network": "826路，1210路",
        "public_transport": "platform"
      },
      "geometry": {
        "type": "Point",
        "coordinates": [
          108.793068,
          34.292567
        ]
      },
      "id": "node/8968485269"
    },
    {
      "type": "Feature",
      "properties": {
        "@id": "node/8968485298",
        "bus": "yes",
        "highway": "bus_stop",
        "name": "征和四路西段",
        "network": "826路，827路",
        "public_transport": "platform"
      },
      "geometry": {
        "type": "Point",
        "coordinates": [
          108.8006193,
          34.2865953
        ]
      },
      "id": "node/8968485298"
    },
    {
      "type": "Feature",
      "properties": {
        "@id": "node/8968485299",
        "bus": "yes",
        "highway": "bus_stop",
        "name": "征和四路西段",
        "network": "826路，827路",
        "public_transport": "platform"
      },
      "geometry": {
        "type": "Point",
        "coordinates": [
          108.8032246,
          34.2864997
        ]
      },
      "id": "node/8968485299"
    },
    {
      "type": "Feature",
      "properties": {
        "@id": "node/8968489719",
        "name": "沣东自贸园-A口",
        "railway": "subway_entrance",
        "ref": "A",
        "wheelchair": "no"
      },
      "geometry": {
        "type": "Point",
        "coordinates": [
          108.7910103,
          34.3094683
        ]
      },
      "id": "node/8968489719"
    },
    {
      "type": "Feature",
      "properties": {
        "@id": "node/8968489720",
        "name": "沣东自贸园-C1口",
        "railway": "subway_entrance",
        "ref": "C1",
        "wheelchair": "no"
      },
      "geometry": {
        "type": "Point",
        "coordinates": [
          108.7919702,
          34.3081481
        ]
      },
      "id": "node/8968489720"
    },
    {
      "type": "Feature",
      "properties": {
        "@id": "node/8968489721",
        "name": "沣东自贸园-D口",
        "railway": "subway_entrance",
        "ref": "D",
        "wheelchair": "no"
      },
      "geometry": {
        "type": "Point",
        "coordinates": [
          108.7933141,
          34.3087608
        ]
      },
      "id": "node/8968489721"
    },
    {
      "type": "Feature",
      "properties": {
        "@id": "node/8968489722",
        "name": "沣东自贸园-C2口",
        "railway": "subway_entrance",
        "ref": "C2",
        "wheelchair": "no"
      },
      "geometry": {
        "type": "Point",
        "coordinates": [
          108.7934342,
          34.307768
        ]
      },
      "id": "node/8968489722"
    },
    {
      "type": "Feature",
      "properties": {
        "@id": "node/8968520774",
        "name": "后卫寨-A口",
        "railway": "subway_entrance",
        "ref": "A",
        "wheelchair": "yes"
      },
      "geometry": {
        "type": "Point",
        "coordinates": [
          108.80867,
          34.3022917
        ]
      },
      "id": "node/8968520774"
    },
    {
      "type": "Feature",
      "properties": {
        "@id": "node/8968520775",
        "name": "后卫寨-D口",
        "railway": "subway_entrance",
        "ref": "D",
        "wheelchair": "no"
      },
      "geometry": {
        "type": "Point",
        "coordinates": [
          108.8097751,
          34.3017716
        ]
      },
      "id": "node/8968520775"
    },
    {
      "type": "Feature",
      "properties": {
        "@id": "node/8968520776",
        "name": "后卫寨-B口",
        "railway": "subway_entrance",
        "ref": "B",
        "wheelchair": "no"
      },
      "geometry": {
        "type": "Point",
        "coordinates": [
          108.8076925,
          34.3016043
        ]
      },
      "id": "node/8968520776"
    },
    {
      "type": "Feature",
      "properties": {
        "@id": "node/8968520814",
        "bus": "yes",
        "highway": "bus_stop",
        "name": "三桥",
        "network": "59路，222路，366路，503路，701路，725路，820路，825路，830路，865路，901路，901路区间，1013路，1121路，1122路，1123路，1124路，泾西2号线",
        "public_transport": "platform"
      },
      "geometry": {
        "type": "Point",
        "coordinates": [
          108.8282102,
          34.2910761
        ]
      },
      "id": "node/8968520814"
    },
    {
      "type": "Feature",
      "properties": {
        "@id": "node/8968533917",
        "bus": "yes",
        "highway": "bus_stop",
        "name": "万象城",
        "network": "沣东快线1号线",
        "public_transport": "platform"
      },
      "geometry": {
        "type": "Point",
        "coordinates": [
          108.8227606,
          34.2931005
        ]
      },
      "id": "node/8968533917"
    },
    {
      "type": "Feature",
      "properties": {
        "@id": "node/8968533918",
        "bus": "yes",
        "highway": "bus_stop",
        "name": "西部车城",
        "network": "沣东快线1号线",
        "public_transport": "platform"
      },
      "geometry": {
        "type": "Point",
        "coordinates": [
          108.8168745,
          34.2914776
        ]
      },
      "id": "node/8968533918"
    },
    {
      "type": "Feature",
      "properties": {
        "@id": "node/8968533933",
        "name": "三桥-B口",
        "railway": "subway_entrance",
        "ref": "B",
        "wheelchair": "no"
      },
      "geometry": {
        "type": "Point",
        "coordinates": [
          108.8266307,
          34.2914067
        ]
      },
      "id": "node/8968533933"
    },
    {
      "type": "Feature",
      "properties": {
        "@id": "node/8968533934",
        "name": "三桥-C口",
        "railway": "subway_entrance",
        "ref": "C",
        "wheelchair": "yes"
      },
      "geometry": {
        "type": "Point",
        "coordinates": [
          108.8276809,
          34.2909857
        ]
      },
      "id": "node/8968533934"
    },
    {
      "type": "Feature",
      "properties": {
        "@id": "node/8968558756",
        "bus": "yes",
        "highway": "bus_stop",
        "name": "三桥地铁站",
        "network": "沣东快线1号线",
        "public_transport": "platform"
      },
      "geometry": {
        "type": "Point",
        "coordinates": [
          108.8280827,
          34.291398
        ]
      },
      "id": "node/8968558756"
    },
    {
      "type": "Feature",
      "properties": {
        "@id": "node/8968558758",
        "bus": "yes",
        "highway": "bus_stop",
        "name": "三桥西",
        "network": "222路，366路，503路，701路，725路，820路，825路，830路，865路，901路，901路区间，1013路，1120路，1121路，1123路，1124路",
        "public_transport": "platform"
      },
      "geometry": {
        "type": "Point",
        "coordinates": [
          108.820468,
          34.2957987
        ]
      },
      "id": "node/8968558758"
    },
    {
      "type": "Feature",
      "properties": {
        "@id": "node/8968558759",
        "bus": "yes",
        "highway": "bus_stop",
        "name": "三桥东",
        "network": "222路，366路，503路，701路，725路，820路，825路，830路，865路，901路，901路区间，1013路，1120路，1121路，1123路，1124路",
        "public_transport": "platform"
      },
      "geometry": {
        "type": "Point",
        "coordinates": [
          108.8343068,
          34.2901124
        ]
      },
      "id": "node/8968558759"
    },
    {
      "type": "Feature",
      "properties": {
        "@id": "node/8968558760",
        "bus": "yes",
        "highway": "bus_stop",
        "name": "三桥东",
        "network": "222路，366路，503路，701路，725路，820路，825路，830路，865路，901路，901路区间，1013路，1120路，1121路，1123路，1124路",
        "public_transport": "platform"
      },
      "geometry": {
        "type": "Point",
        "coordinates": [
          108.8345497,
          34.2898624
        ]
      },
      "id": "node/8968558760"
    },
    {
      "type": "Feature",
      "properties": {
        "@id": "node/8968582849",
        "bus": "yes",
        "highway": "bus_stop",
        "name": "三桥立交",
        "network": "234路，331路",
        "public_transport": "platform"
      },
      "geometry": {
        "type": "Point",
        "coordinates": [
          108.8380279,
          34.2905658
        ]
      },
      "id": "node/8968582849"
    },
    {
      "type": "Feature",
      "properties": {
        "@id": "node/8968582852",
        "bus": "yes",
        "highway": "bus_stop",
        "name": "三桥东",
        "network": "301路",
        "public_transport": "platform"
      },
      "geometry": {
        "type": "Point",
        "coordinates": [
          108.8359288,
          34.2895401
        ]
      },
      "id": "node/8968582852"
    },
    {
      "type": "Feature",
      "properties": {
        "@id": "node/8968582853",
        "bus": "yes",
        "highway": "bus_stop",
        "name": "三桥立交东",
        "network": "234路",
        "public_transport": "platform"
      },
      "geometry": {
        "type": "Point",
        "coordinates": [
          108.8408013,
          34.2892826
        ]
      },
      "id": "node/8968582853"
    },
    {
      "type": "Feature",
      "properties": {
        "@id": "node/8968582854",
        "bus": "yes",
        "highway": "bus_stop",
        "name": "宜家家居",
        "network": "821路",
        "public_transport": "platform"
      },
      "geometry": {
        "type": "Point",
        "coordinates": [
          108.842365,
          34.2881327
        ]
      },
      "id": "node/8968582854"
    },
    {
      "type": "Feature",
      "properties": {
        "@id": "node/8968582857",
        "bus": "yes",
        "highway": "bus_stop",
        "name": "三桥立交东",
        "network": "234路",
        "public_transport": "platform"
      },
      "geometry": {
        "type": "Point",
        "coordinates": [
          108.8431331,
          34.2879652
        ]
      },
      "id": "node/8968582857"
    },
    {
      "type": "Feature",
      "properties": {
        "@id": "node/8968582858",
        "bus": "yes",
        "highway": "bus_stop",
        "name": "阿房四路中段",
        "network": "331路，829路，830路，1121路",
        "public_transport": "platform"
      },
      "geometry": {
        "type": "Point",
        "coordinates": [
          108.8376663,
          34.2845356
        ]
      },
      "id": "node/8968582858"
    },
    {
      "type": "Feature",
      "properties": {
        "@id": "node/8968582859",
        "bus": "yes",
        "highway": "bus_stop",
        "name": "阿房四路中段",
        "network": "331路，829路，830路，1121路",
        "public_transport": "platform"
      },
      "geometry": {
        "type": "Point",
        "coordinates": [
          108.8369448,
          34.2847282
        ]
      },
      "id": "node/8968582859"
    },
    {
      "type": "Feature",
      "properties": {
        "@id": "node/8968582862",
        "name": "皂河-A口",
        "railway": "subway_entrance",
        "ref": "A",
        "wheelchair": "no"
      },
      "geometry": {
        "type": "Point",
        "coordinates": [
          108.8478015,
          34.2863063
        ]
      },
      "id": "node/8968582862"
    },
    {
      "type": "Feature",
      "properties": {
        "@id": "node/8968582863",
        "name": "皂河-C口",
        "railway": "subway_entrance",
        "ref": "C",
        "wheelchair": "yes"
      },
      "geometry": {
        "type": "Point",
        "coordinates": [
          108.847978,
          34.285454
        ]
      },
      "id": "node/8968582863"
    },
    {
      "type": "Feature",
      "properties": {
        "@id": "node/8968582864",
        "bus": "yes",
        "highway": "bus_stop",
        "name": "皂河地铁站",
        "network": "820路，1124路",
        "public_transport": "platform"
      },
      "geometry": {
        "type": "Point",
        "coordinates": [
          108.8477578,
          34.2860574
        ]
      },
      "id": "node/8968582864"
    },
    {
      "type": "Feature",
      "properties": {
        "@id": "node/8968582865",
        "bus": "yes",
        "highway": "bus_stop",
        "name": "枣园西路阿房路口",
        "network": "222路，223路，234路，301路，366路，367路，503路，701路，713路，725路，901路，901路区间",
        "public_transport": "platform"
      },
      "geometry": {
        "type": "Point",
        "coordinates": [
          108.8481682,
          34.2856079
        ]
      },
      "id": "node/8968582865"
    },
    {
      "type": "Feature",
      "properties": {
        "@id": "node/8972013237",
        "bus": "yes",
        "highway": "bus_stop",
        "public_transport": "platform"
      },
      "geometry": {
        "type": "Point",
        "coordinates": [
          108.9372683,
          34.3697039
        ]
      },
      "id": "node/8972013237"
    },
    {
      "type": "Feature",
      "properties": {
        "@id": "node/8972013238",
        "bus": "yes",
        "highway": "bus_stop",
        "name": "西安北站南广场",
        "network": "723路",
        "public_transport": "platform"
      },
      "geometry": {
        "type": "Point",
        "coordinates": [
          108.9394902,
          34.3695779
        ]
      },
      "id": "node/8972013238"
    },
    {
      "type": "Feature",
      "properties": {
        "@id": "node/8972013239",
        "bus": "yes",
        "highway": "bus_stop",
        "name": "元光路元鼎路口",
        "network": "723路",
        "public_transport": "platform"
      },
      "geometry": {
        "type": "Point",
        "coordinates": [
          108.9401442,
          34.3696914
        ]
      },
      "id": "node/8972013239"
    },
    {
      "type": "Feature",
      "properties": {
        "@id": "node/8972013240",
        "bus": "yes",
        "highway": "bus_stop",
        "public_transport": "platform"
      },
      "geometry": {
        "type": "Point",
        "coordinates": [
          108.9424054,
          34.3697058
        ]
      },
      "id": "node/8972013240"
    },
    {
      "type": "Feature",
      "properties": {
        "@id": "node/8972013241",
        "bus": "yes",
        "highway": "bus_stop",
        "name": "长乐东苑D区",
        "network": "723路",
        "public_transport": "platform"
      },
      "geometry": {
        "type": "Point",
        "coordinates": [
          108.9443151,
          34.3696228
        ]
      },
      "id": "node/8972013241"
    },
    {
      "type": "Feature",
      "properties": {
        "@id": "node/8972048645",
        "bus": "yes",
        "highway": "bus_stop",
        "name": "长乐东苑D区",
        "network": "723路",
        "public_transport": "platform"
      },
      "geometry": {
        "type": "Point",
        "coordinates": [
          108.9459793,
          34.3699339
        ]
      },
      "id": "node/8972048645"
    },
    {
      "type": "Feature",
      "properties": {
        "@id": "node/8972048646",
        "bus": "yes",
        "highway": "bus_stop",
        "name": "吕小寨社区",
        "network": "723路",
        "public_transport": "platform"
      },
      "geometry": {
        "type": "Point",
        "coordinates": [
          108.948962,
          34.3701947
        ]
      },
      "id": "node/8972048646"
    },
    {
      "type": "Feature",
      "properties": {
        "@id": "node/8972048647",
        "bus": "yes",
        "highway": "bus_stop",
        "name": "吕小寨社区",
        "network": "723路",
        "public_transport": "platform"
      },
      "geometry": {
        "type": "Point",
        "coordinates": [
          108.9487574,
          34.3700415
        ]
      },
      "id": "node/8972048647"
    },
    {
      "type": "Feature",
      "properties": {
        "@id": "node/8972048648",
        "bus": "yes",
        "highway": "bus_stop",
        "public_transport": "platform"
      },
      "geometry": {
        "type": "Point",
        "coordinates": [
          108.9498247,
          34.3710578
        ]
      },
      "id": "node/8972048648"
    },
    {
      "type": "Feature",
      "properties": {
        "@id": "node/8972048649",
        "bus": "yes",
        "highway": "bus_stop",
        "name": "韩家湾社区",
        "network": "723路",
        "public_transport": "platform"
      },
      "geometry": {
        "type": "Point",
        "coordinates": [
          108.9497496,
          34.3724239
        ]
      },
      "id": "node/8972048649"
    },
    {
      "type": "Feature",
      "properties": {
        "@id": "node/8972048650",
        "bus": "yes",
        "highway": "bus_stop",
        "name": "韩家湾社区",
        "network": "723路",
        "public_transport": "platform"
      },
      "geometry": {
        "type": "Point",
        "coordinates": [
          108.9498299,
          34.3725554
        ]
      },
      "id": "node/8972048650"
    },
    {
      "type": "Feature",
      "properties": {
        "@id": "node/8972048652",
        "bus": "yes",
        "highway": "bus_stop",
        "name": "隆源国际城B区",
        "network": "723路",
        "public_transport": "platform"
      },
      "geometry": {
        "type": "Point",
        "coordinates": [
          108.9498689,
          34.3745318
        ]
      },
      "id": "node/8972048652"
    },
    {
      "type": "Feature",
      "properties": {
        "@id": "node/8972048653",
        "bus": "yes",
        "highway": "bus_stop",
        "name": "隆源国际城B区",
        "network": "723路",
        "public_transport": "platform"
      },
      "geometry": {
        "type": "Point",
        "coordinates": [
          108.9497414,
          34.3751252
        ]
      },
      "id": "node/8972048653"
    },
    {
      "type": "Feature",
      "properties": {
        "@id": "node/8972048654",
        "bus": "yes",
        "highway": "bus_stop",
        "name": "建元二路元朔大道口",
        "network": "会展3号线",
        "public_transport": "platform"
      },
      "geometry": {
        "type": "Point",
        "coordinates": [
          108.9512268,
          34.3762236
        ]
      },
      "id": "node/8972048654"
    },
    {
      "type": "Feature",
      "properties": {
        "@id": "node/8972048655",
        "bus": "yes",
        "highway": "bus_stop",
        "name": "长乐东苑B区",
        "network": "723路",
        "public_transport": "platform"
      },
      "geometry": {
        "type": "Point",
        "coordinates": [
          108.9485018,
          34.3757953
        ]
      },
      "id": "node/8972048655"
    },
    {
      "type": "Feature",
      "properties": {
        "@id": "node/8972048657",
        "bus": "yes",
        "highway": "bus_stop",
        "name": "长乐东苑小区",
        "network": "723路",
        "public_transport": "platform"
      },
      "geometry": {
        "type": "Point",
        "coordinates": [
          108.9479193,
          34.3754545
        ]
      },
      "id": "node/8972048657"
    },
    {
      "type": "Feature",
      "properties": {
        "@id": "node/8972048658",
        "bus": "yes",
        "highway": "bus_stop",
        "public_transport": "platform"
      },
      "geometry": {
        "type": "Point",
        "coordinates": [
          108.946928,
          34.3743142
        ]
      },
      "id": "node/8972048658"
    },
    {
      "type": "Feature",
      "properties": {
        "@id": "node/8972048659",
        "bus": "yes",
        "highway": "bus_stop",
        "name": "长乐东苑A区",
        "network": "723路",
        "public_transport": "platform"
      },
      "geometry": {
        "type": "Point",
        "coordinates": [
          108.9458593,
          34.3752091
        ]
      },
      "id": "node/8972048659"
    },
    {
      "type": "Feature",
      "properties": {
        "@id": "node/8972048660",
        "bus": "yes",
        "highway": "bus_stop",
        "name": "建元路元朔大道口",
        "network": "会展3号线",
        "public_transport": "platform"
      },
      "geometry": {
        "type": "Point",
        "coordinates": [
          108.9450757,
          34.3747709
        ]
      },
      "id": "node/8972048660"
    },
    {
      "type": "Feature",
      "properties": {
        "@id": "node/8972048661",
        "bus": "yes",
        "highway": "bus_stop",
        "name": "建元路元朔路口",
        "network": "723路",
        "public_transport": "platform"
      },
      "geometry": {
        "type": "Point",
        "coordinates": [
          108.9435418,
          34.3757157
        ]
      },
      "id": "node/8972048661"
    },
    {
      "type": "Feature",
      "properties": {
        "@id": "node/8972048662",
        "bus": "yes",
        "highway": "bus_stop",
        "name": "建元路元朔路口",
        "network": "282路，314路，360路，840路，881路，881路快线，泾西1号线，泾西1号线区间",
        "public_transport": "platform"
      },
      "geometry": {
        "type": "Point",
        "coordinates": [
          108.9435471,
          34.3766969
        ]
      },
      "id": "node/8972048662"
    },
    {
      "type": "Feature",
      "properties": {
        "@id": "node/8972048663",
        "bus": "yes",
        "highway": "bus_stop",
        "name": "建元路元朔路口",
        "network": "108路，266路，281路，282路，314路，360路，362路，723路，840路，881路，881路快线，泾西1号线，泾西1号线区间",
        "public_transport": "platform"
      },
      "geometry": {
        "type": "Point",
        "coordinates": [
          108.9433803,
          34.376744
        ]
      },
      "id": "node/8972048663"
    },
    {
      "type": "Feature",
      "properties": {
        "@id": "node/8972054276",
        "bus": "yes",
        "highway": "bus_stop",
        "name": "文景路元朔路口",
        "network": "881路，881路快线",
        "public_transport": "platform"
      },
      "geometry": {
        "type": "Point",
        "coordinates": [
          108.9407381,
          34.3737411
        ]
      },
      "id": "node/8972054276"
    },
    {
      "type": "Feature",
      "properties": {
        "@id": "node/8972054278",
        "bus": "yes",
        "highway": "bus_stop",
        "name": "文景路元朔路口",
        "network": "881路，881路快线",
        "public_transport": "platform"
      },
      "geometry": {
        "type": "Point",
        "coordinates": [
          108.9373697,
          34.3720187
        ]
      },
      "id": "node/8972054278"
    },
    {
      "type": "Feature",
      "properties": {
        "@id": "node/8972054279",
        "bus": "yes",
        "highway": "bus_stop",
        "name": "西安北站南广场",
        "network": "282路，314路，329路，840路",
        "public_transport": "platform"
      },
      "geometry": {
        "type": "Point",
        "coordinates": [
          108.9375339,
          34.371689
        ]
      },
      "id": "node/8972054279"
    },
    {
      "type": "Feature",
      "properties": {
        "@id": "node/8972054280",
        "bus": "yes",
        "highway": "bus_stop",
        "name": "文景路元朔路口",
        "network": "108路，266路，329路，727路",
        "public_transport": "platform"
      },
      "geometry": {
        "type": "Point",
        "coordinates": [
          108.9344291,
          34.3717013
        ]
      },
      "id": "node/8972054280"
    },
    {
      "type": "Feature",
      "properties": {
        "@id": "node/8972054281",
        "bus": "yes",
        "highway": "bus_stop",
        "name": "文景路元朔路口",
        "network": "727路",
        "public_transport": "platform"
      },
      "geometry": {
        "type": "Point",
        "coordinates": [
          108.9347376,
          34.3708406
        ]
      },
      "id": "node/8972054281"
    },
    {
      "type": "Feature",
      "properties": {
        "@id": "node/8972054283",
        "bus": "yes",
        "highway": "bus_stop",
        "public_transport": "platform"
      },
      "geometry": {
        "type": "Point",
        "coordinates": [
          108.9336323,
          34.3696646
        ]
      },
      "id": "node/8972054283"
    },
    {
      "type": "Feature",
      "properties": {
        "@id": "node/8972054284",
        "bus": "yes",
        "highway": "bus_stop",
        "public_transport": "platform"
      },
      "geometry": {
        "type": "Point",
        "coordinates": [
          108.9304924,
          34.3693605
        ]
      },
      "id": "node/8972054284"
    },
    {
      "type": "Feature",
      "properties": {
        "@id": "node/8972054285",
        "bus": "yes",
        "highway": "bus_stop",
        "public_transport": "platform"
      },
      "geometry": {
        "type": "Point",
        "coordinates": [
          108.928423,
          34.3692936
        ]
      },
      "id": "node/8972054285"
    },
    {
      "type": "Feature",
      "properties": {
        "@id": "node/8972054287",
        "bus": "yes",
        "highway": "bus_stop",
        "name": "明光路元朔路口",
        "public_transport": "platform"
      },
      "geometry": {
        "type": "Point",
        "coordinates": [
          108.926138,
          34.3688227
        ]
      },
      "id": "node/8972054287"
    },
    {
      "type": "Feature",
      "properties": {
        "@id": "node/8972054288",
        "bus": "yes",
        "highway": "bus_stop",
        "name": "明光路元朔路口",
        "network": "117路，182路，263路，264路，530路，841路，882路，884路",
        "public_transport": "platform"
      },
      "geometry": {
        "type": "Point",
        "coordinates": [
          108.9248191,
          34.3696224
        ]
      },
      "id": "node/8972054288"
    },
    {
      "type": "Feature",
      "properties": {
        "@id": "node/8972089469",
        "name": "凤城十路-A口",
        "railway": "subway_entrance",
        "ref": "A",
        "wheelchair": "no"
      },
      "geometry": {
        "type": "Point",
        "coordinates": [
          108.9427674,
          34.3544726
        ]
      },
      "id": "node/8972089469"
    },
    {
      "type": "Feature",
      "properties": {
        "@id": "node/8972089470",
        "name": "凤城十路-D口",
        "railway": "subway_entrance",
        "ref": "D",
        "wheelchair": "no"
      },
      "geometry": {
        "type": "Point",
        "coordinates": [
          108.9435229,
          34.3543983
        ]
      },
      "id": "node/8972089470"
    },
    {
      "type": "Feature",
      "properties": {
        "@id": "node/8972089471",
        "name": "凤城十路-C口",
        "railway": "subway_entrance",
        "ref": "C",
        "wheelchair": "no"
      },
      "geometry": {
        "type": "Point",
        "coordinates": [
          108.943643,
          34.3537382
        ]
      },
      "id": "node/8972089471"
    },
    {
      "type": "Feature",
      "properties": {
        "@id": "node/8972089472",
        "name": "凤城十路-B口",
        "railway": "subway_entrance",
        "ref": "B",
        "wheelchair": "yes"
      },
      "geometry": {
        "type": "Point",
        "coordinates": [
          108.9425432,
          34.3533526
        ]
      },
      "id": "node/8972089472"
    },
    {
      "type": "Feature",
      "properties": {
        "@id": "node/8972089487",
        "bus": "yes",
        "highway": "bus_stop",
        "name": "河址西",
        "network": "884路",
        "public_transport": "platform"
      },
      "geometry": {
        "type": "Point",
        "coordinates": [
          108.9500169,
          34.3577202
        ]
      },
      "id": "node/8972089487"
    },
    {
      "type": "Feature",
      "properties": {
        "@id": "node/8972089491",
        "bus": "yes",
        "highway": "bus_stop",
        "name": "北三环路口",
        "network": "702路",
        "public_transport": "platform"
      },
      "geometry": {
        "type": "Point",
        "coordinates": [
          108.952699,
          34.3642657
        ]
      },
      "id": "node/8972089491"
    },
    {
      "type": "Feature",
      "properties": {
        "@id": "node/8972089492",
        "bus": "yes",
        "highway": "bus_stop",
        "name": "北三环路口",
        "network": "702路",
        "public_transport": "platform"
      },
      "geometry": {
        "type": "Point",
        "coordinates": [
          108.9526398,
          34.3642453
        ]
      },
      "id": "node/8972089492"
    },
    {
      "type": "Feature",
      "properties": {
        "@id": "node/8972089493",
        "bus": "yes",
        "highway": "bus_stop",
        "name": "河址西北",
        "network": "170路，336路，509路，702路",
        "public_transport": "platform"
      },
      "geometry": {
        "type": "Point",
        "coordinates": [
          108.9510827,
          34.362133
        ]
      },
      "id": "node/8972089493"
    },
    {
      "type": "Feature",
      "properties": {
        "@id": "node/8972089494",
        "bus": "yes",
        "highway": "bus_stop",
        "name": "河址西北",
        "network": "170路，336路，509路，702路",
        "public_transport": "platform"
      },
      "geometry": {
        "type": "Point",
        "coordinates": [
          108.951182,
          34.361216
        ]
      },
      "id": "node/8972089494"
    },
    {
      "type": "Feature",
      "properties": {
        "@id": "node/8972089502",
        "bus": "yes",
        "highway": "bus_stop",
        "name": "河址西",
        "network": "170路，329路，336路，509路，702路",
        "public_transport": "platform"
      },
      "geometry": {
        "type": "Point",
        "coordinates": [
          108.9513687,
          34.3579326
        ]
      },
      "id": "node/8972089502"
    },
    {
      "type": "Feature",
      "properties": {
        "@id": "node/8972089503",
        "bus": "yes",
        "highway": "bus_stop",
        "name": "河址西",
        "network": "170路，329路，336路，509路，702路",
        "public_transport": "platform"
      },
      "geometry": {
        "type": "Point",
        "coordinates": [
          108.9514718,
          34.3578939
        ]
      },
      "id": "node/8972089503"
    },
    {
      "type": "Feature",
      "properties": {
        "@id": "node/8972137678",
        "bus": "yes",
        "highway": "bus_stop",
        "name": "凤城十路口(地铁运动公园站)",
        "network": "泾渭定制公交2号线",
        "public_transport": "platform"
      },
      "geometry": {
        "type": "Point",
        "coordinates": [
          108.9431048,
          34.3549794
        ]
      },
      "id": "node/8972137678"
    },
    {
      "type": "Feature",
      "properties": {
        "@id": "node/8972137679",
        "bus": "yes",
        "highway": "bus_stop",
        "name": "凤城十路口(地铁运动公园站)",
        "network": "泾渭定制公交2号线",
        "public_transport": "platform"
      },
      "geometry": {
        "type": "Point",
        "coordinates": [
          108.9433781,
          34.3551822
        ]
      },
      "id": "node/8972137679"
    },
    {
      "type": "Feature",
      "properties": {
        "@id": "node/8972137680",
        "bus": "yes",
        "highway": "bus_stop",
        "name": "未央路凤城十路口",
        "network": "泾渭定制公交1号线，泾西1号线，泾西1号线区间",
        "public_transport": "platform"
      },
      "geometry": {
        "type": "Point",
        "coordinates": [
          108.9433432,
          34.3550414
        ]
      },
      "id": "node/8972137680"
    },
    {
      "type": "Feature",
      "properties": {
        "@id": "node/8972137701",
        "bus": "yes",
        "highway": "bus_stop",
        "name": "凤城九路开元路口",
        "network": "50路，197路，207路，609路",
        "public_transport": "platform"
      },
      "geometry": {
        "type": "Point",
        "coordinates": [
          108.9446649,
          34.3489711
        ]
      },
      "id": "node/8972137701"
    },
    {
      "type": "Feature",
      "properties": {
        "@id": "node/8972137702",
        "bus": "yes",
        "highway": "bus_stop",
        "name": "凤城九路开元路口",
        "network": "50路，197路，207路，609路",
        "public_transport": "platform"
      },
      "geometry": {
        "type": "Point",
        "coordinates": [
          108.9445657,
          34.348971
        ]
      },
      "id": "node/8972137702"
    },
    {
      "type": "Feature",
      "properties": {
        "@id": "node/8972137704",
        "bus": "yes",
        "highway": "bus_stop",
        "name": "城市运动公园",
        "network": "282路，530路，723路",
        "public_transport": "platform"
      },
      "geometry": {
        "type": "Point",
        "coordinates": [
          108.9427405,
          34.3501099
        ]
      },
      "id": "node/8972137704"
    },
    {
      "type": "Feature",
      "properties": {
        "@id": "node/8972137705",
        "bus": "yes",
        "highway": "bus_stop",
        "name": "城市运动公园",
        "network": "170路，336路",
        "public_transport": "platform"
      },
      "geometry": {
        "type": "Point",
        "coordinates": [
          108.9427649,
          34.3513003
        ]
      },
      "id": "node/8972137705"
    },
    {
      "type": "Feature",
      "properties": {
        "@id": "node/8972137706",
        "bus": "yes",
        "highway": "bus_stop",
        "name": "未央路凤城十路口",
        "network": "112路，170路，314路，329路，336路，727路，884路",
        "public_transport": "platform"
      },
      "geometry": {
        "type": "Point",
        "coordinates": [
          108.9438974,
          34.3539876
        ]
      },
      "id": "node/8972137706"
    },
    {
      "type": "Feature",
      "properties": {
        "@id": "node/8972137707",
        "bus": "yes",
        "highway": "bus_stop",
        "name": "未央路凤城十路口",
        "network": "329路",
        "public_transport": "platform"
      },
      "geometry": {
        "type": "Point",
        "coordinates": [
          108.9442408,
          34.3541993
        ]
      },
      "id": "node/8972137707"
    },
    {
      "type": "Feature",
      "properties": {
        "@id": "node/8972137708",
        "bus": "yes",
        "highway": "bus_stop",
        "name": "未央路凤城十路口",
        "network": "112路，282路，314路，530路，723路，727路，884路，泾西1号线，泾西1号线区间",
        "public_transport": "platform"
      },
      "geometry": {
        "type": "Point",
        "coordinates": [
          108.9416232,
          34.3540509
        ]
      },
      "id": "node/8972137708"
    },
    {
      "type": "Feature",
      "properties": {
        "@id": "node/8972232275",
        "bus": "yes",
        "highway": "bus_stop",
        "name": "行政中心",
        "network": "50路，197路，207路，238路，282路，336路，609路，723路",
        "public_transport": "platform"
      },
      "geometry": {
        "type": "Point",
        "coordinates": [
          108.9418376,
          34.3446336
        ]
      },
      "id": "node/8972232275"
    },
    {
      "type": "Feature",
      "properties": {
        "@id": "node/8972232276",
        "bus": "yes",
        "highway": "bus_stop",
        "name": "城市运动公园",
        "network": "50路，170路，197路，207路，238路，282路，336路，530路，609路，723路",
        "public_transport": "platform"
      },
      "geometry": {
        "type": "Point",
        "coordinates": [
          108.941821,
          34.3476761
        ]
      },
      "id": "node/8972232276"
    },
    {
      "type": "Feature",
      "properties": {
        "@id": "node/8972232284",
        "name": "行政中心-A口",
        "railway": "subway_entrance",
        "ref": "A",
        "wheelchair": "yes"
      },
      "geometry": {
        "type": "Point",
        "coordinates": [
          108.9420717,
          34.3432408
        ]
      },
      "id": "node/8972232284"
    },
    {
      "type": "Feature",
      "properties": {
        "@id": "node/8972232285",
        "name": "行政中心-D口",
        "railway": "subway_entrance",
        "ref": "D",
        "wheelchair": "no"
      },
      "geometry": {
        "type": "Point",
        "coordinates": [
          108.9430382,
          34.3432335
        ]
      },
      "id": "node/8972232285"
    },
    {
      "type": "Feature",
      "properties": {
        "@id": "node/8972232286",
        "name": "行政中心-A2口",
        "railway": "subway_entrance",
        "ref": "A2",
        "wheelchair": "no"
      },
      "geometry": {
        "type": "Point",
        "coordinates": [
          108.9413706,
          34.3438542
        ]
      },
      "id": "node/8972232286"
    },
    {
      "type": "Feature",
      "properties": {
        "@id": "node/8972232287",
        "name": "行政中心-A3口",
        "railway": "subway_entrance",
        "ref": "A3",
        "wheelchair": "yes"
      },
      "geometry": {
        "type": "Point",
        "coordinates": [
          108.9409681,
          34.343534
        ]
      },
      "id": "node/8972232287"
    },
    {
      "type": "Feature",
      "properties": {
        "@id": "node/8972232288",
        "name": "行政中心-A1口",
        "railway": "subway_entrance",
        "ref": "A1",
        "wheelchair": "no"
      },
      "geometry": {
        "type": "Point",
        "coordinates": [
          108.9416795,
          34.3436009
        ]
      },
      "id": "node/8972232288"
    },
    {
      "type": "Feature",
      "properties": {
        "@id": "node/8972232289",
        "name": "行政中心-D3口",
        "railway": "subway_entrance",
        "ref": "D3",
        "wheelchair": "no"
      },
      "geometry": {
        "type": "Point",
        "coordinates": [
          108.9441463,
          34.3435252
        ]
      },
      "id": "node/8972232289"
    },
    {
      "type": "Feature",
      "properties": {
        "@id": "node/8972232290",
        "name": "行政中心-D2口",
        "railway": "subway_entrance",
        "ref": "D2",
        "wheelchair": "no"
      },
      "geometry": {
        "type": "Point",
        "coordinates": [
          108.9445582,
          34.3432012
        ]
      },
      "id": "node/8972232290"
    },
    {
      "type": "Feature",
      "properties": {
        "@id": "node/8972232291",
        "name": "行政中心-D1口",
        "railway": "subway_entrance",
        "ref": "D1",
        "wheelchair": "no"
      },
      "geometry": {
        "type": "Point",
        "coordinates": [
          108.9438531,
          34.3432578
        ]
      },
      "id": "node/8972232291"
    },
    {
      "type": "Feature",
      "properties": {
        "@id": "node/8972232292",
        "name": "行政中心-B口",
        "railway": "subway_entrance",
        "ref": "B",
        "wheelchair": "no"
      },
      "geometry": {
        "type": "Point",
        "coordinates": [
          108.9420872,
          34.341876
        ]
      },
      "id": "node/8972232292"
    },
    {
      "type": "Feature",
      "properties": {
        "@id": "node/8972232293",
        "name": "行政中心-C口",
        "railway": "subway_entrance",
        "ref": "C",
        "wheelchair": "no"
      },
      "geometry": {
        "type": "Point",
        "coordinates": [
          108.9430322,
          34.3418762
        ]
      },
      "id": "node/8972232293"
    },
    {
      "type": "Feature",
      "properties": {
        "@id": "node/8972232294",
        "name": "行政中心-B2口",
        "railway": "subway_entrance",
        "ref": "B2",
        "wheelchair": "no"
      },
      "geometry": {
        "type": "Point",
        "coordinates": [
          108.9409616,
          34.3415987
        ]
      },
      "id": "node/8972232294"
    },
    {
      "type": "Feature",
      "properties": {
        "@id": "node/8972232295",
        "name": "行政中心-B3口",
        "railway": "subway_entrance",
        "ref": "B3",
        "wheelchair": "no"
      },
      "geometry": {
        "type": "Point",
        "coordinates": [
          108.9413167,
          34.3412782
        ]
      },
      "id": "node/8972232295"
    },
    {
      "type": "Feature",
      "properties": {
        "@id": "node/8972232296",
        "name": "行政中心-B1口",
        "railway": "subway_entrance",
        "ref": "B1",
        "wheelchair": "no"
      },
      "geometry": {
        "type": "Point",
        "coordinates": [
          108.9416458,
          34.341596
        ]
      },
      "id": "node/8972232296"
    },
    {
      "type": "Feature",
      "properties": {
        "@id": "node/8972232297",
        "name": "行政中心-C1口",
        "railway": "subway_entrance",
        "ref": "C1",
        "wheelchair": "no"
      },
      "geometry": {
        "type": "Point",
        "coordinates": [
          108.943395,
          34.341527
        ]
      },
      "id": "node/8972232297"
    },
    {
      "type": "Feature",
      "properties": {
        "@id": "node/8972232298",
        "name": "行政中心-C2口",
        "railway": "subway_entrance",
        "ref": "C2",
        "wheelchair": "no"
      },
      "geometry": {
        "type": "Point",
        "coordinates": [
          108.9437284,
          34.3412249
        ]
      },
      "id": "node/8972232298"
    },
    {
      "type": "Feature",
      "properties": {
        "@id": "node/8972232299",
        "name": "行政中心-C3口",
        "railway": "subway_entrance",
        "ref": "C3",
        "wheelchair": "yes"
      },
      "geometry": {
        "type": "Point",
        "coordinates": [
          108.9441837,
          34.3415785
        ]
      },
      "id": "node/8972232299"
    },
    {
      "type": "Feature",
      "properties": {
        "@id": "node/8972237725",
        "bus": "yes",
        "highway": "bus_stop",
        "public_transport": "platform"
      },
      "geometry": {
        "type": "Point",
        "coordinates": [
          108.9436784,
          34.3388712
        ]
      },
      "id": "node/8972237725"
    },
    {
      "type": "Feature",
      "properties": {
        "@id": "node/8972237743",
        "bus": "yes",
        "highway": "bus_stop",
        "name": "行政中心",
        "network": "163路，170路，284路，317路，530路，618路，702路，711路，719路，全运9号线",
        "public_transport": "platform"
      },
      "geometry": {
        "type": "Point",
        "coordinates": [
          108.9463934,
          34.3425085
        ]
      },
      "id": "node/8972237743"
    },
    {
      "type": "Feature",
      "properties": {
        "@id": "node/8972264116",
        "bus": "yes",
        "highway": "bus_stop",
        "name": "行政中心",
        "network": "163路，170路，317路，530路，618路，702路，711路，719路，全运9号线",
        "public_transport": "platform"
      },
      "geometry": {
        "type": "Point",
        "coordinates": [
          108.9463387,
          34.3425998
        ]
      },
      "id": "node/8972264116"
    },
    {
      "type": "Feature",
      "properties": {
        "@id": "node/8972266117",
        "bus": "yes",
        "highway": "bus_stop",
        "name": "开元路凤城八路口",
        "network": "170路，284路",
        "public_transport": "platform"
      },
      "geometry": {
        "type": "Point",
        "coordinates": [
          108.9490887,
          34.3415458
        ]
      },
      "id": "node/8972266117"
    },
    {
      "type": "Feature",
      "properties": {
        "@id": "node/8972266118",
        "bus": "yes",
        "highway": "bus_stop",
        "name": "开元路凤城八路口",
        "network": "509路",
        "public_transport": "platform"
      },
      "geometry": {
        "type": "Point",
        "coordinates": [
          108.9490588,
          34.3432909
        ]
      },
      "id": "node/8972266118"
    },
    {
      "type": "Feature",
      "properties": {
        "@id": "node/8972266119",
        "bus": "yes",
        "highway": "bus_stop",
        "name": "开元路凤城八路口",
        "network": "163路，292路，509路",
        "public_transport": "platform"
      },
      "geometry": {
        "type": "Point",
        "coordinates": [
          108.9491621,
          34.3431794
        ]
      },
      "id": "node/8972266119"
    },
    {
      "type": "Feature",
      "properties": {
        "@id": "node/8972266120",
        "bus": "yes",
        "highway": "bus_stop",
        "name": "开元路苑城路口",
        "network": "163路。292路",
        "public_transport": "platform"
      },
      "geometry": {
        "type": "Point",
        "coordinates": [
          108.9491286,
          34.3460802
        ]
      },
      "id": "node/8972266120"
    },
    {
      "type": "Feature",
      "properties": {
        "@id": "node/8972266121",
        "bus": "yes",
        "highway": "bus_stop",
        "name": "开元路苑城路口",
        "network": "134路，293路",
        "public_transport": "platform"
      },
      "geometry": {
        "type": "Point",
        "coordinates": [
          108.9502506,
          34.3473294
        ]
      },
      "id": "node/8972266121"
    },
    {
      "type": "Feature",
      "properties": {
        "@id": "node/8972266122",
        "bus": "yes",
        "highway": "bus_stop",
        "name": "凤城九路开元路口",
        "network": "234路，293路",
        "public_transport": "platform"
      },
      "geometry": {
        "type": "Point",
        "coordinates": [
          108.9482491,
          34.3489749
        ]
      },
      "id": "node/8972266122"
    },
    {
      "type": "Feature",
      "properties": {
        "@id": "node/8972266123",
        "bus": "yes",
        "highway": "bus_stop",
        "name": "凤城九路开元路口",
        "network": "50路，197路，207路，234路，293路，609路",
        "public_transport": "platform"
      },
      "geometry": {
        "type": "Point",
        "coordinates": [
          108.9472514,
          34.3489741
        ]
      },
      "id": "node/8972266123"
    },
    {
      "type": "Feature",
      "properties": {
        "@id": "node/8972266124",
        "bus": "yes",
        "highway": "bus_stop",
        "name": "西航福利区",
        "network": "134路，207路，509路，609路，702路，727路",
        "public_transport": "platform"
      },
      "geometry": {
        "type": "Point",
        "coordinates": [
          108.9490846,
          34.3507499
        ]
      },
      "id": "node/8972266124"
    },
    {
      "type": "Feature",
      "properties": {
        "@id": "node/8972266125",
        "bus": "yes",
        "highway": "bus_stop",
        "name": "西航福利区",
        "network": "134路，207路，509路，609路，702路，727路",
        "public_transport": "platform"
      },
      "geometry": {
        "type": "Point",
        "coordinates": [
          108.9490844,
          34.350895
        ]
      },
      "id": "node/8972266125"
    },
    {
      "type": "Feature",
      "properties": {
        "@id": "node/8972266126",
        "bus": "yes",
        "highway": "bus_stop",
        "name": "凤城九路永徽路口",
        "network": "234路，727路",
        "public_transport": "platform"
      },
      "geometry": {
        "type": "Point",
        "coordinates": [
          108.950846,
          34.348946
        ]
      },
      "id": "node/8972266126"
    },
    {
      "type": "Feature",
      "properties": {
        "@id": "node/8972266127",
        "bus": "yes",
        "highway": "bus_stop",
        "name": "凤城九路永徽路口",
        "network": "234路，727路",
        "public_transport": "platform"
      },
      "geometry": {
        "type": "Point",
        "coordinates": [
          108.9515259,
          34.3489454
        ]
      },
      "id": "node/8972266127"
    },
    {
      "type": "Feature",
      "properties": {
        "@id": "node/8972266128",
        "bus": "yes",
        "highway": "bus_stop",
        "name": "红旗西路公交调度站",
        "network": "112路，134路，207路，236路，256路，314路，609路，884路",
        "public_transport": "platform"
      },
      "geometry": {
        "type": "Point",
        "coordinates": [
          108.9521166,
          34.3551389
        ]
      },
      "id": "node/8972266128"
    },
    {
      "type": "Feature",
      "properties": {
        "@id": "node/8972266129",
        "bus": "yes",
        "highway": "bus_stop",
        "name": "红旗西路公交调度站",
        "network": "112路，134路，207路，236路，256路，314路，609路，884路",
        "public_transport": "platform"
      },
      "geometry": {
        "type": "Point",
        "coordinates": [
          108.9525827,
          34.3551052
        ]
      },
      "id": "node/8972266129"
    },
    {
      "type": "Feature",
      "properties": {
        "@id": "node/8972266130",
        "bus": "yes",
        "highway": "bus_stop",
        "name": "开元路凤城十路口",
        "network": "112路，170路，336路，727路，884路",
        "public_transport": "platform"
      },
      "geometry": {
        "type": "Point",
        "coordinates": [
          108.9480113,
          34.3545764
        ]
      },
      "id": "node/8972266130"
    },
    {
      "type": "Feature",
      "properties": {
        "@id": "node/8972266131",
        "bus": "yes",
        "highway": "bus_stop",
        "name": "开元路凤城十路口",
        "network": "112路，134路，170路，207路，306路，509路，609路，702路",
        "public_transport": "platform"
      },
      "geometry": {
        "type": "Point",
        "coordinates": [
          108.9497918,
          34.3547466
        ]
      },
      "id": "node/8972266131"
    },
    {
      "type": "Feature",
      "properties": {
        "@id": "node/8972266132",
        "bus": "yes",
        "highway": "bus_stop",
        "name": "开元路凤城十路口",
        "network": "134路，207路，509路，609路，702路，727路",
        "public_transport": "platform"
      },
      "geometry": {
        "type": "Point",
        "coordinates": [
          108.9490914,
          34.3536138
        ]
      },
      "id": "node/8972266132"
    },
    {
      "type": "Feature",
      "properties": {
        "@id": "node/8973178162",
        "bus": "yes",
        "highway": "bus_stop",
        "name": "张家堡",
        "network": "234路，238路",
        "public_transport": "platform"
      },
      "geometry": {
        "type": "Point",
        "coordinates": [
          108.9409705,
          34.3388726
        ]
      },
      "id": "node/8973178162"
    },
    {
      "type": "Feature",
      "properties": {
        "@id": "node/8973220987",
        "bus": "yes",
        "highway": "bus_stop",
        "name": "张家堡",
        "network": "234路",
        "public_transport": "platform"
      },
      "geometry": {
        "type": "Point",
        "coordinates": [
          108.9406901,
          34.3388756
        ]
      },
      "id": "node/8973220987"
    },
    {
      "type": "Feature",
      "properties": {
        "@id": "node/8973220988",
        "bus": "yes",
        "highway": "bus_stop",
        "name": "张家堡",
        "network": "265路，600路，901路区间",
        "public_transport": "platform"
      },
      "geometry": {
        "type": "Point",
        "coordinates": [
          108.9412449,
          34.3388687
        ]
      },
      "id": "node/8973220988"
    },
    {
      "type": "Feature",
      "properties": {
        "@id": "node/8973220989",
        "bus": "yes",
        "highway": "bus_stop",
        "name": "文景路凤城七路口",
        "network": "238路，265路，600路",
        "public_transport": "platform"
      },
      "geometry": {
        "type": "Point",
        "coordinates": [
          108.9347673,
          34.3390264
        ]
      },
      "id": "node/8973220989"
    },
    {
      "type": "Feature",
      "properties": {
        "@id": "node/8973220997",
        "bus": "yes",
        "highway": "bus_stop",
        "name": "文景路凤城七路口",
        "network": "238路，600路",
        "public_transport": "platform"
      },
      "geometry": {
        "type": "Point",
        "coordinates": [
          108.9347387,
          34.3388949
        ]
      },
      "id": "node/8973220997"
    },
    {
      "type": "Feature",
      "properties": {
        "@id": "node/8973221013",
        "bus": "yes",
        "highway": "bus_stop",
        "name": "开元路凤城五路口",
        "network": "170路",
        "public_transport": "platform"
      },
      "geometry": {
        "type": "Point",
        "coordinates": [
          108.9490854,
          34.3322654
        ]
      },
      "id": "node/8973221013"
    },
    {
      "type": "Feature",
      "properties": {
        "@id": "node/8973221014",
        "bus": "yes",
        "highway": "bus_stop",
        "name": "开元路凤城六路口",
        "network": "170路",
        "public_transport": "platform"
      },
      "geometry": {
        "type": "Point",
        "coordinates": [
          108.9490783,
          34.3345635
        ]
      },
      "id": "node/8973221014"
    },
    {
      "type": "Feature",
      "properties": {
        "@id": "node/8973221015",
        "bus": "yes",
        "highway": "bus_stop",
        "name": "开元路凤城六路口",
        "network": "509路",
        "public_transport": "platform"
      },
      "geometry": {
        "type": "Point",
        "coordinates": [
          108.9481829,
          34.3349558
        ]
      },
      "id": "node/8973221015"
    },
    {
      "type": "Feature",
      "properties": {
        "@id": "node/8973221016",
        "bus": "yes",
        "highway": "bus_stop",
        "name": "开元路凤城六路口",
        "network": "509路",
        "public_transport": "platform"
      },
      "geometry": {
        "type": "Point",
        "coordinates": [
          108.9486401,
          34.3349519
        ]
      },
      "id": "node/8973221016"
    },
    {
      "type": "Feature",
      "properties": {
        "@id": "node/8973232021",
        "bus": "yes",
        "highway": "bus_stop",
        "name": "开元路凤城八路口",
        "network": "170路",
        "public_transport": "platform"
      },
      "geometry": {
        "type": "Point",
        "coordinates": [
          108.9490846,
          34.3406907
        ]
      },
      "id": "node/8973232021"
    },
    {
      "type": "Feature",
      "properties": {
        "@id": "node/8973232022",
        "bus": "yes",
        "highway": "bus_stop",
        "name": "开元路凤城七路口",
        "network": "170路",
        "public_transport": "platform"
      },
      "geometry": {
        "type": "Point",
        "coordinates": [
          108.949069,
          34.3393145
        ]
      },
      "id": "node/8973232022"
    },
    {
      "type": "Feature",
      "properties": {
        "@id": "node/8973232023",
        "bus": "yes",
        "highway": "bus_stop",
        "name": "开元路凤城七路口",
        "network": "170路",
        "public_transport": "platform"
      },
      "geometry": {
        "type": "Point",
        "coordinates": [
          108.949064,
          34.3375522
        ]
      },
      "id": "node/8973232023"
    },
    {
      "type": "Feature",
      "properties": {
        "@id": "node/8973232024",
        "bus": "yes",
        "highway": "bus_stop",
        "name": "开元路凤城六路口",
        "network": "170路",
        "public_transport": "platform"
      },
      "geometry": {
        "type": "Point",
        "coordinates": [
          108.9490748,
          34.3358613
        ]
      },
      "id": "node/8973232024"
    },
    {
      "type": "Feature",
      "properties": {
        "@id": "node/8973232025",
        "bus": "yes",
        "highway": "bus_stop",
        "name": "开元路凤城五路口",
        "network": "165路，263路，293路，932路",
        "public_transport": "platform"
      },
      "geometry": {
        "type": "Point",
        "coordinates": [
          108.9483607,
          34.3314225
        ]
      },
      "id": "node/8973232025"
    },
    {
      "type": "Feature",
      "properties": {
        "@id": "node/8973232026",
        "bus": "yes",
        "highway": "bus_stop",
        "name": "开元路凤城五路口",
        "network": "165路，248路，293路，932路",
        "public_transport": "platform"
      },
      "geometry": {
        "type": "Point",
        "coordinates": [
          108.9496283,
          34.3313333
        ]
      },
      "id": "node/8973232026"
    },
    {
      "type": "Feature",
      "properties": {
        "@id": "node/8973232031",
        "bus": "yes",
        "highway": "bus_stop",
        "name": "开元路凤城五路口",
        "network": "170路，248路，263路，289路",
        "public_transport": "platform"
      },
      "geometry": {
        "type": "Point",
        "coordinates": [
          108.9490849,
          34.3305835
        ]
      },
      "id": "node/8973232031"
    },
    {
      "type": "Feature",
      "properties": {
        "@id": "node/8973232032",
        "bus": "yes",
        "highway": "bus_stop",
        "name": "未央路凤城五路口",
        "network": "50路，197路，207路，317路，336路，509路，600路，609路，618路，702路，711路，719路，723路，901路区间",
        "public_transport": "platform"
      },
      "geometry": {
        "type": "Point",
        "coordinates": [
          108.9426411,
          34.3325394
        ]
      },
      "id": "node/8973232032"
    },
    {
      "type": "Feature",
      "properties": {
        "@id": "node/8973232033",
        "name": "凤城五路-A口",
        "railway": "subway_entrance",
        "ref": "A",
        "wheelchair": "no"
      },
      "geometry": {
        "type": "Point",
        "coordinates": [
          108.9421626,
          34.3319872
        ]
      },
      "id": "node/8973232033"
    },
    {
      "type": "Feature",
      "properties": {
        "@id": "node/8973232034",
        "name": "凤城五路-D口",
        "railway": "subway_entrance",
        "ref": "D",
        "wheelchair": "yes"
      },
      "geometry": {
        "type": "Point",
        "coordinates": [
          108.9433439,
          34.3316712
        ]
      },
      "id": "node/8973232034"
    },
    {
      "type": "Feature",
      "properties": {
        "@id": "node/8973232035",
        "bus": "yes",
        "highway": "bus_stop",
        "name": "未央路凤城五路口",
        "network": "117路，165路，263路",
        "public_transport": "platform"
      },
      "geometry": {
        "type": "Point",
        "coordinates": [
          108.9415882,
          34.3314099
        ]
      },
      "id": "node/8973232035"
    },
    {
      "type": "Feature",
      "properties": {
        "@id": "node/8973232036",
        "bus": "yes",
        "highway": "bus_stop",
        "name": "未央路凤城五路口",
        "network": "932路",
        "public_transport": "platform"
      },
      "geometry": {
        "type": "Point",
        "coordinates": [
          108.9436821,
          34.3314114
        ]
      },
      "id": "node/8973232036"
    },
    {
      "type": "Feature",
      "properties": {
        "@id": "node/8973232037",
        "bus": "yes",
        "highway": "bus_stop",
        "name": "未央路凤城五路口",
        "network": "165路，248路，263路，289路，293路，932路",
        "public_transport": "platform"
      },
      "geometry": {
        "type": "Point",
        "coordinates": [
          108.9438055,
          34.3313417
        ]
      },
      "id": "node/8973232037"
    },
    {
      "type": "Feature",
      "properties": {
        "@id": "node/8973232055",
        "bus": "yes",
        "highway": "bus_stop",
        "name": "永徽路凤城八路口",
        "network": "293路，509路",
        "public_transport": "platform"
      },
      "geometry": {
        "type": "Point",
        "coordinates": [
          108.9524362,
          34.3408313
        ]
      },
      "id": "node/8973232055"
    },
    {
      "type": "Feature",
      "properties": {
        "@id": "node/8973232056",
        "bus": "yes",
        "highway": "bus_stop",
        "name": "永徽路凤城八路口",
        "network": "293路，509路",
        "public_transport": "platform"
      },
      "geometry": {
        "type": "Point",
        "coordinates": [
          108.9524404,
          34.3418598
        ]
      },
      "id": "node/8973232056"
    },
    {
      "type": "Feature",
      "properties": {
        "@id": "node/8973785607",
        "name": "凤城五路-B口",
        "railway": "subway_entrance",
        "ref": "B",
        "wheelchair": "no"
      },
      "geometry": {
        "type": "Point",
        "coordinates": [
          108.9415892,
          34.3310287
        ]
      },
      "id": "node/8973785607"
    },
    {
      "type": "Feature",
      "properties": {
        "@id": "node/8973798021",
        "bus": "yes",
        "highway": "bus_stop",
        "name": "未央路凤城五路口",
        "network": "50路，117路，151路，168路，197路，207路，293路，317路，336路，509路，600路，609路，618路，702路，711路，719路，723路，901路区间，932路",
        "public_transport": "platform"
      },
      "geometry": {
        "type": "Point",
        "coordinates": [
          108.9424732,
          34.3304218
        ]
      },
      "id": "node/8973798021"
    },
    {
      "type": "Feature",
      "properties": {
        "@id": "node/8973798022",
        "bus": "yes",
        "highway": "bus_stop",
        "name": "尤家庄",
        "network": "117路，197路，207路，248路，289路，293路，317路，336路，509路，600路，609路，618路，711路，719路，723路，901路区间，932路",
        "public_transport": "platform"
      },
      "geometry": {
        "type": "Point",
        "coordinates": [
          108.9426418,
          34.3290998
        ]
      },
      "id": "node/8973798022"
    },
    {
      "type": "Feature",
      "properties": {
        "@id": "node/8973798023",
        "bus": "yes",
        "highway": "bus_stop",
        "name": "市中医医院",
        "network": "234路，284路，510路",
        "public_transport": "platform"
      },
      "geometry": {
        "type": "Point",
        "coordinates": [
          108.9556713,
          34.3415594
        ]
      },
      "id": "node/8973798023"
    },
    {
      "type": "Feature",
      "properties": {
        "@id": "node/8973798024",
        "bus": "yes",
        "highway": "bus_stop",
        "name": "贞观路凤城八路口",
        "network": "727路",
        "public_transport": "platform"
      },
      "geometry": {
        "type": "Point",
        "coordinates": [
          108.9556702,
          34.3416107
        ]
      },
      "id": "node/8973798024"
    },
    {
      "type": "Feature",
      "properties": {
        "@id": "node/8973798025",
        "bus": "yes",
        "highway": "bus_stop",
        "name": "贞观路凤城七路口",
        "network": "234路，284路",
        "public_transport": "platform"
      },
      "geometry": {
        "type": "Point",
        "coordinates": [
          108.9545418,
          34.3384491
        ]
      },
      "id": "node/8973798025"
    },
    {
      "type": "Feature",
      "properties": {
        "@id": "node/8973798026",
        "bus": "yes",
        "highway": "bus_stop",
        "name": "贞观路凤城七路口",
        "network": "134路，234路，284路，510路，727路",
        "public_transport": "platform"
      },
      "geometry": {
        "type": "Point",
        "coordinates": [
          108.9557994,
          34.3394233
        ]
      },
      "id": "node/8973798026"
    },
    {
      "type": "Feature",
      "properties": {
        "@id": "node/8973798027",
        "bus": "yes",
        "highway": "bus_stop",
        "name": "贞观路凤城七路口",
        "network": "134路，510路，727路",
        "public_transport": "platform"
      },
      "geometry": {
        "type": "Point",
        "coordinates": [
          108.9556666,
          34.3376639
        ]
      },
      "id": "node/8973798027"
    },
    {
      "type": "Feature",
      "properties": {
        "@id": "node/8973798028",
        "bus": "yes",
        "highway": "bus_stop",
        "name": "开元路凤城七路口",
        "network": "234路，284路",
        "public_transport": "platform"
      },
      "geometry": {
        "type": "Point",
        "coordinates": [
          108.950549,
          34.3384564
        ]
      },
      "id": "node/8973798028"
    },
    {
      "type": "Feature",
      "properties": {
        "@id": "node/8973798029",
        "bus": "yes",
        "highway": "bus_stop",
        "name": "开元路凤城七路口",
        "network": "234路，284路",
        "public_transport": "platform"
      },
      "geometry": {
        "type": "Point",
        "coordinates": [
          108.9503399,
          34.3383938
        ]
      },
      "id": "node/8973798029"
    },
    {
      "type": "Feature",
      "properties": {
        "@id": "node/8973798030",
        "bus": "yes",
        "highway": "bus_stop",
        "name": "永徽路凤城六路口",
        "network": "293路，509路",
        "public_transport": "platform"
      },
      "geometry": {
        "type": "Point",
        "coordinates": [
          108.9523967,
          34.3374674
        ]
      },
      "id": "node/8973798030"
    },
    {
      "type": "Feature",
      "properties": {
        "@id": "node/8973798031",
        "bus": "yes",
        "highway": "bus_stop",
        "name": "永徽路凤城六路口",
        "network": "293路，509路",
        "public_transport": "platform"
      },
      "geometry": {
        "type": "Point",
        "coordinates": [
          108.9523942,
          34.3358303
        ]
      },
      "id": "node/8973798031"
    },
    {
      "type": "Feature",
      "properties": {
        "@id": "node/8973798032",
        "bus": "yes",
        "highway": "bus_stop",
        "name": "贞观路常青二路口",
        "network": "727路",
        "public_transport": "platform"
      },
      "geometry": {
        "type": "Point",
        "coordinates": [
          108.9557643,
          34.3340848
        ]
      },
      "id": "node/8973798032"
    },
    {
      "type": "Feature",
      "properties": {
        "@id": "node/8973798033",
        "bus": "yes",
        "highway": "bus_stop",
        "name": "贞观路常青二路口",
        "network": "727路",
        "public_transport": "platform"
      },
      "geometry": {
        "type": "Point",
        "coordinates": [
          108.9556095,
          34.3333918
        ]
      },
      "id": "node/8973798033"
    },
    {
      "type": "Feature",
      "properties": {
        "@id": "node/8973798038",
        "bus": "yes",
        "highway": "bus_stop",
        "name": "贞观路凤城五路口",
        "network": "134路，510路",
        "public_transport": "platform"
      },
      "geometry": {
        "type": "Point",
        "coordinates": [
          108.9555851,
          34.3326531
        ]
      },
      "id": "node/8973798038"
    },
    {
      "type": "Feature",
      "properties": {
        "@id": "node/8973798039",
        "bus": "yes",
        "highway": "bus_stop",
        "name": "贞观路凤城五路口",
        "network": "134路，510路，727路",
        "public_transport": "platform"
      },
      "geometry": {
        "type": "Point",
        "coordinates": [
          108.9557035,
          34.3321526
        ]
      },
      "id": "node/8973798039"
    },
    {
      "type": "Feature",
      "properties": {
        "@id": "node/8973798040",
        "bus": "yes",
        "highway": "bus_stop",
        "name": "贞观路凤城五路口",
        "network": "165路，248路，932路",
        "public_transport": "platform"
      },
      "geometry": {
        "type": "Point",
        "coordinates": [
          108.9545505,
          34.3314267
        ]
      },
      "id": "node/8973798040"
    },
    {
      "type": "Feature",
      "properties": {
        "@id": "node/8973798041",
        "bus": "yes",
        "highway": "bus_stop",
        "name": "贞观路凤城五路口",
        "network": "165路，248路，932路",
        "public_transport": "platform"
      },
      "geometry": {
        "type": "Point",
        "coordinates": [
          108.954511,
          34.3313322
        ]
      },
      "id": "node/8973798041"
    },
    {
      "type": "Feature",
      "properties": {
        "@id": "node/8973798042",
        "bus": "yes",
        "highway": "bus_stop",
        "name": "贞观路凤城五路口",
        "network": "727路",
        "public_transport": "platform"
      },
      "geometry": {
        "type": "Point",
        "coordinates": [
          108.9565019,
          34.3313192
        ]
      },
      "id": "node/8973798042"
    },
    {
      "type": "Feature",
      "properties": {
        "@id": "node/8973916479",
        "bus": "yes",
        "highway": "bus_stop",
        "name": "渭滨路凤城五路口",
        "network": "165路，248路，932路",
        "public_transport": "platform"
      },
      "geometry": {
        "type": "Point",
        "coordinates": [
          108.9589636,
          34.3313032
        ]
      },
      "id": "node/8973916479"
    },
    {
      "type": "Feature",
      "properties": {
        "@id": "node/8973916503",
        "bus": "yes",
        "highway": "bus_stop",
        "name": "北苑站",
        "network": "282路，314路，723路，840路",
        "public_transport": "platform"
      },
      "geometry": {
        "type": "Point",
        "coordinates": [
          108.9390401,
          34.3632172
        ]
      },
      "id": "node/8973916503"
    },
    {
      "type": "Feature",
      "properties": {
        "@id": "node/8973916504",
        "bus": "yes",
        "highway": "bus_stop",
        "name": "北苑站",
        "network": "282路，314路，723路，840路",
        "public_transport": "platform"
      },
      "geometry": {
        "type": "Point",
        "coordinates": [
          108.9390116,
          34.3623854
        ]
      },
      "id": "node/8973916504"
    },
    {
      "type": "Feature",
      "properties": {
        "@id": "node/8973924881",
        "bench": "no",
        "bus": "yes",
        "highway": "bus_stop",
        "name": "凤城北路凤城十二路口",
        "network": "530路，840路",
        "public_transport": "platform",
        "shelter": "yes"
      },
      "geometry": {
        "type": "Point",
        "coordinates": [
          108.9376735,
          34.3600208
        ]
      },
      "id": "node/8973924881"
    },
    {
      "type": "Feature",
      "properties": {
        "@id": "node/8973924882",
        "bench": "no",
        "bus": "yes",
        "highway": "bus_stop",
        "name": "凤城北路凤城十二路口",
        "network": "530路，840路",
        "public_transport": "platform",
        "shelter": "yes"
      },
      "geometry": {
        "type": "Point",
        "coordinates": [
          108.9372072,
          34.3599331
        ]
      },
      "id": "node/8973924882"
    },
    {
      "type": "Feature",
      "properties": {
        "@id": "node/8973924883",
        "bus": "yes",
        "highway": "bus_stop",
        "name": "凤城北路中段",
        "network": "282路，314路，530路，723路",
        "public_transport": "platform"
      },
      "geometry": {
        "type": "Point",
        "coordinates": [
          108.9391732,
          34.3584284
        ]
      },
      "id": "node/8973924883"
    },
    {
      "type": "Feature",
      "properties": {
        "@id": "node/8973924884",
        "bus": "yes",
        "highway": "bus_stop",
        "name": "凤城北路中段",
        "network": "282路，314路，530路，723路",
        "public_transport": "platform"
      },
      "geometry": {
        "type": "Point",
        "coordinates": [
          108.9392662,
          34.3583016
        ]
      },
      "id": "node/8973924884"
    },
    {
      "type": "Feature",
      "properties": {
        "@id": "node/8974070657",
        "bus": "yes",
        "highway": "bus_stop",
        "name": "文景路凤城十二路口",
        "network": "329路，727路",
        "public_transport": "platform"
      },
      "geometry": {
        "type": "Point",
        "coordinates": [
          108.934108,
          34.3613279
        ]
      },
      "id": "node/8974070657"
    },
    {
      "type": "Feature",
      "properties": {
        "@id": "node/8974070658",
        "bus": "yes",
        "highway": "bus_stop",
        "name": "文景路凤城十二路口",
        "network": "329路，727路",
        "public_transport": "platform"
      },
      "geometry": {
        "type": "Point",
        "coordinates": [
          108.9343041,
          34.3609412
        ]
      },
      "id": "node/8974070658"
    },
    {
      "type": "Feature",
      "properties": {
        "@id": "node/8974083417",
        "bus": "yes",
        "highway": "bus_stop",
        "name": "文景路凤城十二路口",
        "network": "263路，530路",
        "public_transport": "platform"
      },
      "geometry": {
        "type": "Point",
        "coordinates": [
          108.9333499,
          34.3598795
        ]
      },
      "id": "node/8974083417"
    },
    {
      "type": "Feature",
      "properties": {
        "@id": "node/8974083418",
        "bus": "yes",
        "highway": "bus_stop",
        "name": "文景路凤城十二路口",
        "network": "263路，530路",
        "public_transport": "platform"
      },
      "geometry": {
        "type": "Point",
        "coordinates": [
          108.9326514,
          34.3597844
        ]
      },
      "id": "node/8974083418"
    },
    {
      "type": "Feature",
      "properties": {
        "@id": "node/8974083419",
        "bus": "yes",
        "highway": "bus_stop",
        "name": "文景路凤城十一路口",
        "network": "108路，263路，266路，329路，727路，840路",
        "public_transport": "platform"
      },
      "geometry": {
        "type": "Point",
        "coordinates": [
          108.9339028,
          34.3585933
        ]
      },
      "id": "node/8974083419"
    },
    {
      "type": "Feature",
      "properties": {
        "@id": "node/8974083420",
        "bus": "yes",
        "highway": "bus_stop",
        "name": "文景路凤城十一路口",
        "network": "108路，263路，266路，329路，727路，840路",
        "public_transport": "platform",
        "shelter": "yes"
      },
      "geometry": {
        "type": "Point",
        "coordinates": [
          108.9340938,
          34.3578899
        ]
      },
      "id": "node/8974083420"
    },
    {
      "type": "Feature",
      "properties": {
        "@id": "node/8974083425",
        "bus": "yes",
        "highway": "bus_stop",
        "name": "文景路凤城十路口",
        "network": "108路，263路，266路，329路，727路，840路",
        "public_transport": "platform"
      },
      "geometry": {
        "type": "Point",
        "coordinates": [
          108.9339169,
          34.3551311
        ]
      },
      "id": "node/8974083425"
    },
    {
      "type": "Feature",
      "properties": {
        "@id": "node/8974083449",
        "bus": "yes",
        "highway": "bus_stop",
        "name": "文景路凤城十路口",
        "network": "108路，263路，266路，840路，884路",
        "public_transport": "platform"
      },
      "geometry": {
        "type": "Point",
        "coordinates": [
          108.9335379,
          34.3524167
        ]
      },
      "id": "node/8974083449"
    },
    {
      "type": "Feature",
      "properties": {
        "@id": "node/8974083450",
        "bus": "yes",
        "highway": "bus_stop",
        "name": "文景路凤城十路口",
        "network": "112路",
        "public_transport": "platform"
      },
      "geometry": {
        "type": "Point",
        "coordinates": [
          108.9328194,
          34.3537355
        ]
      },
      "id": "node/8974083450"
    },
    {
      "type": "Feature",
      "properties": {
        "@id": "node/8974083451",
        "bus": "yes",
        "highway": "bus_stop",
        "name": "文景路凤城十路口",
        "network": "112路，329路，727路，884路",
        "public_transport": "platform"
      },
      "geometry": {
        "type": "Point",
        "coordinates": [
          108.9348951,
          34.3537097
        ]
      },
      "id": "node/8974083451"
    },
    {
      "type": "Feature",
      "properties": {
        "@id": "node/8974083452",
        "bus": "yes",
        "highway": "bus_stop",
        "name": "文景路凤城九路口",
        "network": "117路，163路，238路，884路",
        "public_transport": "platform"
      },
      "geometry": {
        "type": "Point",
        "coordinates": [
          108.9325631,
          34.3490268
        ]
      },
      "id": "node/8974083452"
    },
    {
      "type": "Feature",
      "properties": {
        "@id": "node/8974083453",
        "bus": "yes",
        "highway": "bus_stop",
        "name": "文景路凤城九路口",
        "network": "238路",
        "public_transport": "platform"
      },
      "geometry": {
        "type": "Point",
        "coordinates": [
          108.9345114,
          34.348924
        ]
      },
      "id": "node/8974083453"
    },
    {
      "type": "Feature",
      "properties": {
        "@id": "node/8974083454",
        "bus": "yes",
        "highway": "bus_stop",
        "name": "文景路凤城九路口",
        "network": "108路，263路，266路，840路，884路",
        "public_transport": "platform"
      },
      "geometry": {
        "type": "Point",
        "coordinates": [
          108.9336618,
          34.3501765
        ]
      },
      "id": "node/8974083454"
    },
    {
      "type": "Feature",
      "properties": {
        "@id": "node/8974302102",
        "bus": "yes",
        "highway": "bus_stop",
        "name": "文景东区",
        "network": "134路，163路，292路，293路",
        "public_transport": "platform"
      },
      "geometry": {
        "type": "Point",
        "coordinates": [
          108.9524231,
          34.346526
        ]
      },
      "id": "node/8974302102"
    },
    {
      "type": "Feature",
      "properties": {
        "@id": "node/8974302103",
        "bus": "yes",
        "highway": "bus_stop",
        "name": "文景东区",
        "network": "134路，163路，292路，293路",
        "public_transport": "platform"
      },
      "geometry": {
        "type": "Point",
        "coordinates": [
          108.9524232,
          34.3463517
        ]
      },
      "id": "node/8974302103"
    },
    {
      "type": "Feature",
      "properties": {
        "@id": "node/8974302108",
        "bus": "yes",
        "highway": "bus_stop",
        "name": "凤城九路贞观路口",
        "network": "234路，727路",
        "public_transport": "platform"
      },
      "geometry": {
        "type": "Point",
        "coordinates": [
          108.9548637,
          34.3489571
        ]
      },
      "id": "node/8974302108"
    },
    {
      "type": "Feature",
      "properties": {
        "@id": "node/8974302109",
        "bus": "yes",
        "highway": "bus_stop",
        "name": "凤城九路贞观路口",
        "network": "727路",
        "public_transport": "platform"
      },
      "geometry": {
        "type": "Point",
        "coordinates": [
          108.956241,
          34.3489517
        ]
      },
      "id": "node/8974302109"
    },
    {
      "type": "Feature",
      "properties": {
        "@id": "node/8974302110",
        "bus": "yes",
        "highway": "bus_stop",
        "name": "凤城九路贞观路口",
        "network": "234路",
        "public_transport": "platform"
      },
      "geometry": {
        "type": "Point",
        "coordinates": [
          108.9554951,
          34.3481584
        ]
      },
      "id": "node/8974302110"
    },
    {
      "type": "Feature",
      "properties": {
        "@id": "node/8974359630",
        "bus": "yes",
        "highway": "bus_stop",
        "name": "永徽路凤城五路口",
        "network": "293路",
        "public_transport": "platform"
      },
      "geometry": {
        "type": "Point",
        "coordinates": [
          108.9523517,
          34.3318713
        ]
      },
      "id": "node/8974359630"
    },
    {
      "type": "Feature",
      "properties": {
        "@id": "node/8974359631",
        "bus": "yes",
        "highway": "bus_stop",
        "name": "永徽路凤城五路口",
        "network": "293路",
        "public_transport": "platform"
      },
      "geometry": {
        "type": "Point",
        "coordinates": [
          108.9523535,
          34.3319874
        ]
      },
      "id": "node/8974359631"
    },
    {
      "type": "Feature",
      "properties": {
        "@id": "node/8974463991",
        "bus": "yes",
        "highway": "bus_stop",
        "name": "贞观路凤城四路口",
        "network": "134路，510路",
        "public_transport": "platform"
      },
      "geometry": {
        "type": "Point",
        "coordinates": [
          108.9556737,
          34.3286384
        ]
      },
      "id": "node/8974463991"
    },
    {
      "type": "Feature",
      "properties": {
        "@id": "node/8974463992",
        "bus": "yes",
        "highway": "bus_stop",
        "name": "贞观路凤城四路口",
        "network": "168路",
        "public_transport": "platform"
      },
      "geometry": {
        "type": "Point",
        "coordinates": [
          108.9565954,
          34.3279684
        ]
      },
      "id": "node/8974463992"
    },
    {
      "type": "Feature",
      "properties": {
        "@id": "node/8974463993",
        "bus": "yes",
        "highway": "bus_stop",
        "name": "贞观路凤城四路口",
        "network": "168路，209路，510路",
        "public_transport": "platform"
      },
      "geometry": {
        "type": "Point",
        "coordinates": [
          108.9547455,
          34.3280485
        ]
      },
      "id": "node/8974463993"
    },
    {
      "type": "Feature",
      "properties": {
        "@id": "node/8974463997",
        "bus": "yes",
        "highway": "bus_stop",
        "name": "贞观路凤城四路口",
        "network": "134路，209路",
        "public_transport": "platform"
      },
      "geometry": {
        "type": "Point",
        "coordinates": [
          108.955538,
          34.3271842
        ]
      },
      "id": "node/8974463997"
    },
    {
      "type": "Feature",
      "properties": {
        "@id": "node/8974464003",
        "bus": "yes",
        "highway": "bus_stop",
        "name": "尤家庄",
        "network": "117路，197路，207路，266路，289路，293路，317路，336路，509路，600路，609路，618路，711路，719路，723路，901路区间，932路",
        "public_transport": "platform"
      },
      "geometry": {
        "type": "Point",
        "coordinates": [
          108.9424716,
          34.3272505
        ]
      },
      "id": "node/8974464003"
    },
    {
      "type": "Feature",
      "properties": {
        "@id": "node/8974464004",
        "bus": "yes",
        "highway": "bus_stop",
        "name": "凤城六路西口",
        "network": "165路，235路，900路",
        "public_transport": "platform"
      },
      "geometry": {
        "type": "Point",
        "coordinates": [
          108.9151556,
          34.3356908
        ]
      },
      "id": "node/8974464004"
    },
    {
      "type": "Feature",
      "properties": {
        "@id": "node/8974542124",
        "bus": "yes",
        "highway": "bus_stop",
        "name": "贾十字",
        "network": "235路，717路，900路",
        "public_transport": "platform"
      },
      "geometry": {
        "type": "Point",
        "coordinates": [
          108.9162152,
          34.3295757
        ]
      },
      "id": "node/8974542124"
    },
    {
      "type": "Feature",
      "properties": {
        "@id": "node/8974587539",
        "bus": "yes",
        "highway": "bus_stop",
        "name": "朱宏路公交调度站",
        "name:zh": "朱宏路公交调度站",
        "public_transport": "platform"
      },
      "geometry": {
        "type": "Point",
        "coordinates": [
          108.9143655,
          34.358251
        ]
      },
      "id": "node/8974587539"
    },
    {
      "type": "Feature",
      "properties": {
        "@id": "node/8974587540",
        "bus": "yes",
        "highway": "bus_stop",
        "name": "朱宏路公交调度站",
        "name:zh": "朱宏路公交调度站",
        "public_transport": "platform"
      },
      "geometry": {
        "type": "Point",
        "coordinates": [
          108.9150451,
          34.3580973
        ]
      },
      "id": "node/8974587540"
    },
    {
      "type": "Feature",
      "properties": {
        "@id": "node/8974587541",
        "bus": "yes",
        "highway": "bus_stop",
        "name": "凤城十路西口",
        "network": "165路，235路，238路，265路，717路，900路，901路区间",
        "public_transport": "platform"
      },
      "geometry": {
        "type": "Point",
        "coordinates": [
          108.9145194,
          34.3520051
        ]
      },
      "id": "node/8974587541"
    },
    {
      "type": "Feature",
      "properties": {
        "@id": "node/8974587542",
        "bus": "yes",
        "highway": "bus_stop",
        "name": "凤城九路西口",
        "network": "165路，235路，265路，717路，900路，901路区间",
        "public_transport": "platform"
      },
      "geometry": {
        "type": "Point",
        "coordinates": [
          108.9147889,
          34.3500975
        ]
      },
      "id": "node/8974587542"
    },